,City,Lat,Lng,Max Temp(F),Humidity,Cloudiness,Wind Speed,Country,Date
0,Hilo,19.73,-155.09,84.2,58,1,11.41,US,1607303597
1,Glendive,47.11,-104.71,36.0,66,1,9.17,US,1607304253
2,Puerto Ayora,-0.74,-90.35,72.0,91,72,3.0,EC,1607303963
3,Norman Wells,65.28,-126.83,1.4,84,90,3.36,CA,1607304161
4,Coquimbo,-29.95,-71.34,57.2,82,75,8.05,CL,1607303908
5,Clyde River,70.47,-68.59,3.2,91,90,2.24,CA,1607303881
6,Channel-Port aux Basques,47.57,-59.14,43.93,87,100,15.77,CA,1607304258
7,Nikolskoye,59.7,30.79,28.99,58,0,8.95,RU,1607303957
8,Formosa do Rio Preto,-11.05,-45.19,73.06,65,0,1.28,BR,1607304260
9,George Town,5.41,100.34,80.6,88,20,1.12,MY,1607303888
10,Ushuaia,-54.8,-68.3,50.0,93,75,9.17,AR,1607303876
11,Lhokseumawe,5.18,97.15,77.83,85,99,4.47,ID,1607304265
12,Airai,-8.93,125.41,70.39,87,100,1.9,TL,1607303942
13,Namatanai,-3.67,152.43,84.81,72,38,8.93,PG,1607303994
14,Busselton,-33.65,115.33,66.99,63,0,4.0,AU,1607303887
15,Lompoc,34.64,-120.46,53.6,87,1,8.05,US,1607304167
16,Atuona,-9.8,-139.03,78.33,76,6,14.97,PF,1607303908
17,Upata,8.01,-62.4,78.01,87,81,4.0,VE,1607304271
18,Bredasdorp,-34.53,20.04,62.6,93,100,21.92,ZA,1607304163
19,Mitsamiouli,-11.38,43.28,80.91,74,9,9.37,KM,1607303974
20,Mataura,-46.19,168.86,66.99,59,78,5.99,NZ,1607303888
21,Port Elizabeth,-33.92,25.57,66.2,93,90,14.99,ZA,1607304151
22,Rikitea,-23.12,-134.97,76.77,79,0,13.94,PF,1607303886
23,Lebu,-37.62,-73.65,53.02,94,100,8.95,CL,1607304162
24,Shediac,46.22,-64.54,35.6,100,90,13.87,CA,1607304279
25,Qaanaaq,77.48,-69.36,-1.7,71,100,2.51,GL,1607303878
26,Klaksvík,62.23,-6.59,39.2,72,54,11.41,FO,1607303880
27,Taltal,-25.4,-70.48,61.27,71,21,5.3,CL,1607304020
28,San Rafael,-34.62,-68.33,76.17,27,0,14.23,AR,1607303891
29,Ayan,56.45,138.17,6.51,83,7,10.18,RU,1607304284
30,Upernavik,72.79,-56.15,20.17,97,100,4.27,GL,1607304154
31,New Norfolk,-42.78,147.06,60.8,38,40,11.41,AU,1607303877
32,Port Keats,-14.25,129.55,89.96,61,78,5.06,AU,1607304147
33,Kapaa,22.08,-159.32,82.4,65,75,8.05,US,1607303907
34,Mehamn,71.04,27.85,28.63,92,100,4.88,NO,1607304163
35,Mae Sot,16.72,98.57,64.4,82,20,2.24,TH,1607304291
36,La Ronge,55.1,-105.28,28.4,63,0,2.24,CA,1607304292
37,Whitehorse,60.72,-135.05,27.0,92,40,24.16,CA,1607304293
38,Walvis Bay,-22.96,14.51,61.0,86,0,2.64,NA,1607304295
39,Paulo Afonso,-9.41,-38.21,77.25,67,0,12.53,BR,1607304087
40,Hobart,-42.88,147.33,60.8,38,40,11.41,AU,1607303819
41,Kenai,60.55,-151.26,28.0,62,90,16.11,US,1607304027
42,Punta Arenas,-53.15,-70.92,60.8,63,100,20.8,CL,1607303663
43,Tuktoyaktuk,69.45,-133.04,-4.0,76,75,6.93,CA,1607303957
44,Mareeba,-17.0,145.43,91.99,52,92,10.29,AU,1607304301
45,Saint Paul Harbor,57.79,-152.41,42.8,87,90,18.34,US,1607303663
46,Nome,64.5,-165.41,17.6,44,1,10.29,US,1607303904
47,Cape Town,-33.93,18.42,69.01,77,0,4.7,ZA,1607303619
48,Kargasok,59.06,80.86,14.31,94,100,16.62,RU,1607304308
49,Ganzhou,28.82,115.43,49.5,66,0,4.12,CN,1607304310
50,Jamestown,42.1,-79.24,28.0,85,90,5.82,US,1607303757
51,Yellowknife,62.46,-114.35,17.6,92,90,3.36,CA,1607303877
52,Tomioka,36.25,138.9,55.0,56,0,2.59,JP,1607304314
53,Kaeo,-35.1,173.78,78.01,65,100,5.99,NZ,1607304216
54,Kahului,20.89,-156.47,87.8,48,40,9.17,US,1607303883
55,Kehychivka,49.29,35.76,18.12,88,0,17.07,UA,1607304317
56,Naze,28.37,129.48,73.4,94,75,10.29,JP,1607303963
57,Hong Kong,22.29,114.16,68.0,62,0,1.01,HK,1607304046
58,Noumea,-22.28,166.46,91.4,46,20,12.75,NC,1607304064
59,Geraldton,-28.77,114.6,86.0,17,0,14.99,AU,1607303957
60,Bluff,-46.6,168.33,66.99,61,1,5.01,NZ,1607304142
61,Ribeira Grande,38.52,-28.7,60.42,64,85,4.43,PT,1607303952
62,Barrow,71.29,-156.79,1.4,70,1,9.17,US,1607304177
63,Port Alfred,-33.59,26.89,69.04,89,100,27.11,ZA,1607304143
64,Burns Lake,54.23,-125.75,33.8,88,100,2.24,CA,1607304329
65,São Filipe,14.9,-24.5,75.47,75,77,13.82,CV,1607304161
66,Mogadishu,2.04,45.34,79.03,76,0,10.11,SO,1607304331
67,Mount Isa,-20.73,139.5,93.2,18,83,10.29,AU,1607304221
68,Luanda,-8.84,13.23,77.0,88,75,8.05,AO,1607304117
69,Chicama,-7.84,-79.15,68.0,81,69,5.17,PE,1607304335
70,Sibolga,1.74,98.78,80.01,74,100,1.72,ID,1607304336
71,Acajutla,13.59,-89.83,78.8,57,0,2.01,SV,1607304337
72,Saldanha,-33.01,17.94,59.0,87,33,6.93,ZA,1607304016
73,Castro,-24.79,-50.01,59.76,97,100,8.3,BR,1607304158
74,Santiago del Estero,-27.8,-64.26,71.44,45,0,9.57,AR,1607304078
75,Imbituba,-28.24,-48.67,66.2,93,90,9.17,BR,1607304343
76,Boende,-0.22,20.87,70.83,98,94,2.24,CD,1607304344
77,Carutapera,-1.2,-46.02,79.54,78,99,7.4,BR,1607304055
78,Dikson,73.51,80.55,-5.03,93,50,10.67,RU,1607303957
79,Albany,42.6,-73.97,30.99,58,15,3.0,US,1607303924
80,Mahébourg,-20.41,57.7,75.2,83,20,8.05,MU,1607304179
81,Sehithwa,-20.47,22.72,72.93,67,22,9.51,BW,1607304350
82,Vaini,-21.2,-175.2,82.4,83,75,12.75,TO,1607303888
83,Fukuechō,32.69,128.84,57.2,62,75,11.41,JP,1607304353
84,Barguzin,53.62,109.62,7.63,88,73,6.42,RU,1607304355
85,Provideniya,64.38,-173.3,17.6,72,20,6.71,RU,1607304147
86,Cockburn Town,21.46,-71.14,77.0,73,20,4.7,TC,1607304198
87,Kaitangata,-46.28,169.85,65.79,44,52,8.14,NZ,1607304162
88,Cap Malheureux,-19.98,57.61,77.0,80,9,3.0,MU,1607304359
89,Vila Velha,-20.33,-40.29,78.8,78,75,11.41,BR,1607304154
90,Saskylakh,71.92,114.08,-8.91,90,100,6.17,RU,1607303962
91,Philadelphia,39.95,-75.16,37.4,51,1,12.75,US,1607304202
92,Khatanga,71.97,102.5,-18.17,88,31,4.41,RU,1607303883
93,San Francisco,37.77,-122.42,57.2,67,40,14.99,US,1607303690
94,Campo Grande,-20.44,-54.65,71.6,94,75,6.93,BR,1607304367
95,Vestmannaeyjar,63.44,-20.27,43.07,79,100,33.17,IS,1607303961
96,Pericos,25.05,-107.7,73.4,35,5,9.17,MX,1607304369
97,Esperance,-33.87,121.9,62.6,55,46,6.93,AU,1607303960
98,Port Hawkesbury,45.62,-61.35,41.0,80,75,12.75,CA,1607304202
99,Chernyshevskiy,63.01,112.47,-12.82,89,0,5.79,RU,1607304373
100,Rørvik,64.86,11.24,40.95,77,100,13.6,NO,1607304164
101,Sinzheim,48.76,8.17,39.2,93,100,9.17,DE,1607304376
102,Kampene,-3.6,26.67,66.81,97,2,1.34,CD,1607304377
103,Henties Bay,-22.12,14.28,61.0,86,9,0.47,NA,1607303995
104,Trairi,-3.28,-39.27,80.08,79,100,10.2,BR,1607304379
105,Faanui,-16.48,-151.75,80.78,71,76,9.1,PF,1607303880
106,Kapit,2.02,112.93,78.1,90,100,1.1,MY,1607304381
107,Tirumullaivāsal,11.23,79.83,75.38,90,99,1.36,IN,1607304382
108,Mazabuka,-15.86,27.75,67.37,92,100,1.12,ZM,1607304383
109,Xining,36.62,101.77,15.75,85,54,2.93,CN,1607303950
110,Tiruchchendur,8.48,78.12,76.91,90,100,5.84,IN,1607304386
111,Hambantota,6.12,81.12,71.6,100,5,2.24,LK,1607303962
112,Megion,61.03,76.11,15.8,85,90,11.18,RU,1607304388
113,Montevideo,-34.83,-56.17,64.4,59,0,13.87,UY,1607304213
114,Pitimbu,-7.47,-34.81,78.8,83,20,8.05,BR,1607303998
115,San Cristobal,7.77,-72.22,82.4,69,40,2.24,VE,1607303979
116,Ixtapa,20.7,-105.2,73.4,83,90,2.24,MX,1607304211
117,Petropavlovka,50.61,105.32,-2.74,83,0,4.5,RU,1607304393
118,Butaritari,3.07,172.79,81.18,80,10,14.23,KI,1607303963
119,Orissaare,58.56,23.08,39.0,53,100,13.0,EE,1607304395
120,Khovd,48.01,91.64,-1.28,81,7,0.6,MN,1607304397
121,Saint-Augustin,51.23,-58.65,34.56,96,100,20.98,CA,1607303961
122,Lavrentiya,65.58,-171.0,15.31,93,6,10.76,RU,1607303880
123,Vanimo,-2.67,141.3,77.7,85,99,6.2,PG,1607304228
124,Mezen',65.85,44.24,35.22,97,100,6.4,RU,1607304199
125,Longyearbyen,78.22,15.64,28.4,86,90,19.46,SJ,1607303960
126,Port Macquarie,-31.43,152.92,75.2,57,100,4.7,AU,1607304405
127,Chokurdakh,70.63,147.92,-23.26,86,98,3.87,RU,1607303906
128,Płock,52.55,19.71,35.6,74,75,18.34,PL,1607304407
129,Lamar,33.67,-95.58,46.4,61,1,5.82,US,1607304408
130,Puerto Madryn,-42.77,-65.04,84.7,19,100,23.35,AR,1607304409
131,Takoradze,4.88,-1.76,78.89,83,0,7.18,GH,1607304411
132,Kavieng,-2.57,150.8,85.5,67,2,11.05,PG,1607304203
133,São João da Barra,-21.64,-41.05,75.25,89,100,11.52,BR,1607304244
134,Sinnamary,5.38,-52.95,78.46,86,100,8.37,GF,1607303888
135,Lyaskelya,61.77,31.02,34.2,86,100,10.11,RU,1607304416
136,Caravelas,-17.71,-39.25,75.06,83,100,7.14,BR,1607304144
137,Tuatapere,-46.13,167.68,66.99,61,0,5.01,NZ,1607304197
138,Khudumelapye,-23.88,24.75,66.2,78,65,7.54,BW,1607304419
139,Talnakh,69.49,88.4,12.2,92,90,17.9,RU,1607303883
140,San Quintín,30.48,-115.95,60.24,56,0,6.69,MX,1607304179
141,Torbay,47.67,-52.73,50.0,100,90,11.41,CA,1607304164
142,Kununurra,-15.77,128.73,87.8,70,40,4.7,AU,1607303875
143,Port-Gentil,-0.72,8.78,78.94,84,100,8.52,GA,1607304178
144,Kruisfontein,-34.0,24.73,66.99,93,100,8.01,ZA,1607304145
145,Arraial do Cabo,-22.97,-42.03,77.0,94,75,12.75,BR,1607303903
146,‘Ewa Beach,21.32,-158.01,84.2,58,90,14.99,US,1607304428
147,Kloulklubed,7.04,134.26,82.4,83,75,4.7,PW,1607304429
148,Meulaboh,4.14,96.13,78.21,81,100,2.71,ID,1607304145
149,Vega de Alatorre,20.03,-96.63,62.73,73,99,16.78,MX,1607304431
150,Sīwah,29.2,25.52,64.96,27,89,1.88,EG,1607304432
151,Siderno,38.28,16.3,53.01,97,85,1.99,IT,1607304433
152,Sault Ste. Marie,46.52,-84.33,28.4,86,90,3.36,CA,1607304325
153,Qasigiannguit,68.82,-51.19,23.0,49,100,16.11,GL,1607304436
154,Saint-Joseph,-21.37,55.62,75.2,73,75,5.82,RE,1607304143
155,Hasaki,35.73,140.83,54.0,81,20,3.36,JP,1607303963
156,Cabo San Lucas,22.89,-109.91,71.6,56,5,8.05,MX,1607304175
157,Portland,45.52,-122.68,46.99,81,90,1.19,US,1607303998
158,Singaraja,-8.11,115.09,83.73,74,100,11.52,ID,1607304159
159,Nabire,-3.37,135.48,85.6,68,58,1.68,ID,1607304442
160,Saint John,45.27,-66.07,32.0,92,90,13.87,CA,1607304443
161,Codrington,-38.27,141.97,56.46,63,59,21.34,AU,1607303880
162,San Patricio,28.02,-97.52,59.0,71,1,6.93,US,1607304183
163,Sivas Province,39.79,37.0,24.8,85,0,5.82,TR,1607304446
164,Aklavik,68.22,-135.01,-2.2,77,100,2.73,CA,1607304447
165,Avarua,-21.21,-159.78,84.2,74,83,13.87,CK,1607303886
166,Roald,62.58,6.13,39.2,86,100,10.29,NO,1607304450
167,Kieta,-6.22,155.63,85.71,66,56,3.91,PG,1607304143
168,Tiksi,71.69,128.87,-13.32,89,100,3.71,RU,1607303962
169,Tateyama,34.98,139.87,57.2,71,20,9.17,JP,1607304454
170,West Wendover,40.74,-114.07,26.6,45,1,2.21,US,1607304455
171,Oranjemund,-28.55,16.43,63.09,82,70,8.88,NA,1607304456
172,Thompson,55.74,-97.86,17.6,100,90,6.93,CA,1607304154
173,Jutaí,-5.18,-68.9,70.99,96,100,2.21,BR,1607304458
174,Kawalu,-7.38,108.21,74.71,87,100,0.51,ID,1607304459
175,Narsaq,60.92,-46.05,28.4,58,16,9.17,GL,1607304141
176,Quatre Cocos,-20.21,57.76,77.0,83,20,8.05,MU,1607304462
177,Sovetskiy,61.36,63.58,21.85,95,94,8.21,RU,1607304463
178,Shelui,-4.37,34.2,70.93,67,47,1.03,TZ,1607304464
179,Fayaoué,-20.65,166.53,79.52,82,14,17.76,NC,1607304465
180,Parma,44.8,10.33,39.99,90,83,1.01,IT,1607304466
181,Kawambwa,-9.79,29.08,62.69,94,2,1.34,ZM,1607304467
182,Rock Sound,24.9,-76.2,75.83,71,98,9.93,BS,1607304468
183,Anchorage,61.22,-149.9,25.0,72,90,5.82,US,1607303918
184,Kampot,10.62,104.18,82.4,58,0,9.17,KH,1607304471
185,Mola di Bari,41.06,17.09,50.0,85,100,4.0,IT,1607304472
186,Vigo,42.23,-8.72,60.01,93,75,11.41,ES,1607304474
187,Ponta Delgada,37.73,-25.67,59.0,82,75,2.24,PT,1607304475
188,Batavia,41.85,-88.31,36.0,74,90,5.82,US,1607304249
189,Madingou,-4.15,13.55,72.21,91,100,1.79,CG,1607304477
190,Nanortalik,60.14,-45.24,30.85,94,48,6.89,GL,1607304174
191,Tolbazy,54.02,55.88,-4.0,83,0,4.47,RU,1607304479
192,Paciran,-6.88,112.38,82.33,82,100,19.48,ID,1607303890
193,Mar del Plata,-38.0,-57.56,64.0,72,0,9.17,AR,1607304022
194,Plettenberg Bay,-34.05,23.37,66.7,89,93,19.86,ZA,1607304149
195,Khani,41.96,42.96,46.4,52,0,28.86,GE,1607304217
196,Pisco,-13.7,-76.22,66.2,82,0,18.34,PE,1607303665
197,Manokwari,-0.87,134.08,84.09,70,100,0.72,ID,1607304355
198,Bend,44.06,-121.32,36.0,82,1,2.08,US,1607304487
199,Chui,-33.7,-53.46,56.68,73,7,5.7,UY,1607304157
200,Nueve de Julio,-35.44,-60.88,66.99,45,0,9.19,AR,1607304381
201,Atbasar,51.8,68.33,-1.84,90,100,2.82,KZ,1607304490
202,Kavaratti,10.57,72.64,82.45,75,100,14.03,IN,1607304201
203,Khorramshahr,30.44,48.17,53.6,93,0,4.7,IR,1607304493
204,Moundsville,39.92,-80.74,34.0,68,90,3.36,US,1607304495
205,Laguna,38.42,-121.42,57.2,44,1,3.36,US,1607304057
206,Sayyan,15.17,44.32,49.87,65,38,2.62,YE,1607304497
207,Voznesen'ye,61.01,35.48,32.27,85,7,11.41,RU,1607304498
208,São José da Coroa Grande,-8.9,-35.15,76.71,78,84,9.62,BR,1607304499
209,Shimorskoye,55.32,42.03,17.37,93,0,4.59,RU,1607304500
210,Opuwo,-18.06,13.84,66.07,26,0,7.09,NA,1607304501
211,Quelimane,-17.88,36.89,80.6,83,75,2.24,MZ,1607304163
212,Lüderitz,-26.65,15.16,59.13,82,0,13.85,NA,1607304182
213,Bengkulu,-3.8,102.27,78.96,81,4,4.63,ID,1607304387
214,Gold Coast,-28.0,153.43,82.99,88,90,9.17,AU,1607304490
215,Gillette,44.29,-105.5,39.99,34,1,8.05,US,1607304303
216,Alofi,-19.06,-169.92,86.0,70,75,13.87,NU,1607304109
217,Katsuura,35.13,140.3,55.99,62,20,4.7,JP,1607304179
218,Vila,42.03,-8.16,50.0,96,100,8.99,PT,1607304216
219,Lovozero,68.0,35.01,25.21,97,100,5.03,RU,1607304511
220,Hermanus,-34.42,19.23,64.99,87,100,8.01,ZA,1607304140
221,Howell,42.61,-83.93,28.4,79,90,5.82,US,1607304513
222,Itupiranga,-5.13,-49.33,78.8,100,0,2.19,BR,1607304514
223,Jos,9.92,8.9,65.71,32,20,1.72,NG,1607304515
224,Cidreira,-30.18,-50.21,65.86,88,100,19.22,BR,1607303955
225,Cayenne,4.93,-52.33,77.0,100,0,8.23,GF,1607304226
226,Tura,25.52,90.22,60.44,80,0,2.55,IN,1607304159
227,Diego de Almagro,-26.37,-70.05,58.96,41,0,1.03,CL,1607304521
228,Mitzic,0.78,11.55,68.63,99,38,2.77,GA,1607304522
229,Maheshwar,22.18,75.58,59.0,62,0,3.36,IN,1607304523
230,Severo-Kuril'sk,50.68,156.12,27.86,90,100,10.04,RU,1607304167
231,Alta Floresta,-9.88,-56.09,71.11,95,100,1.7,BR,1607304525
232,Mana,5.66,-53.78,78.51,86,100,8.86,GF,1607304526
233,Brae,60.4,-1.35,44.6,81,0,9.17,GB,1607304157
234,Saint George,37.1,-113.58,52.0,19,1,3.36,US,1607304528
235,Lata,40.16,-8.33,51.01,95,86,5.01,PT,1607304529
236,Rawson,-43.3,-65.1,84.0,19,14,19.44,AR,1607304530
237,Canyon Lake,29.88,-98.26,53.01,67,0,7.94,US,1607304532
238,Cherskiy,68.75,161.3,-0.24,93,100,1.97,RU,1607304533
239,Krasnyy Kut,50.95,46.97,8.04,94,0,6.35,RU,1607304534
240,North Platte,41.12,-100.77,33.8,55,1,4.09,US,1607304193
241,Carnarvon,-24.87,113.63,91.4,14,0,12.75,AU,1607304537
242,Korla,41.76,86.15,23.9,86,89,1.61,CN,1607304198
243,Guánica,17.97,-66.91,75.99,84,89,5.68,PR,1607304330
244,Saint-François,46.42,3.91,39.0,100,90,2.24,FR,1607304541
245,Santa Isabel Rio Negro,-0.41,-65.02,74.12,97,91,1.36,BR,1607304386
246,Leningradskiy,69.38,178.42,10.85,88,96,0.96,RU,1607303957
247,Rocha,-34.48,-54.33,52.07,88,0,4.36,UY,1607304296
248,Labuhan,-6.88,112.21,82.47,81,100,19.73,ID,1607303961
249,Yerbogachën,61.28,108.01,8.13,94,100,9.15,RU,1607304222
250,Ostrovnoy,68.05,39.51,28.65,90,100,5.53,RU,1607304548
251,Esmeraldas,-19.76,-44.31,73.4,88,20,5.82,BR,1607304549
252,Nāgod,24.57,80.6,61.77,45,0,3.4,IN,1607304550
253,Khandyga,62.67,135.6,-17.75,86,100,4.41,RU,1607304551
254,Craig,40.52,-107.55,32.0,53,1,1.5,US,1607304553
255,Srednekolymsk,67.45,153.68,-23.85,86,100,2.06,RU,1607304172
256,Ilulissat,69.22,-51.1,23.0,49,100,16.11,GL,1607304175
257,Khandagayty,50.73,92.05,-5.89,87,89,3.13,RU,1607304556
258,Cervo,43.67,-7.41,54.0,92,100,5.99,ES,1607304557
259,Nhulunbuy,-12.23,136.77,89.6,55,40,8.05,AU,1607304558
260,Villanueva de la Serena,38.98,-5.8,48.99,91,87,8.99,ES,1607304262
261,Souillac,-20.52,57.52,75.2,83,20,8.05,MU,1607304560
262,East London,-33.02,27.91,70.34,91,100,17.63,ZA,1607304561
263,Massaguet,12.48,15.44,68.0,45,91,4.7,TD,1607304562
264,Leer,8.3,30.14,75.42,21,2,6.13,SS,1607304563
265,Sept-Îles,50.2,-66.38,28.4,74,100,20.8,CA,1607304566
266,Americus,32.07,-84.23,55.4,82,90,3.36,US,1607304544
267,Marystown,47.17,-55.15,46.42,88,100,5.88,CA,1607304568
268,Tarquinia,42.25,11.76,43.0,98,78,7.92,IT,1607304569
269,Giohar,2.78,45.5,73.72,85,0,5.26,SO,1607304570
270,Avera,33.19,-82.53,50.0,100,75,5.5,US,1607304203
271,Ponta do Sol,32.67,-17.1,59.0,77,40,3.36,PT,1607303983
272,Port Blair,11.67,92.75,80.2,73,0,11.05,IN,1607304178
273,Shalakusha,62.22,40.25,24.85,95,88,6.64,RU,1607304574
274,Inuvik,68.35,-133.72,-2.2,77,100,0.94,CA,1607304560
275,Tasiilaq,65.61,-37.64,26.6,63,99,13.87,GL,1607304577
276,Port Hardy,50.7,-127.42,51.8,76,90,11.41,CA,1607304578
277,Ilinge,-31.98,27.04,57.33,94,100,0.96,ZA,1607304580
278,Monster,52.03,4.17,43.0,92,100,5.01,NL,1607304582
279,Satara,17.68,73.98,59.68,57,100,2.28,IN,1607304584
280,Terney,45.05,136.61,22.71,85,4,7.83,RU,1607304585
281,Kiruna,67.86,20.23,12.2,92,75,3.27,SE,1607304586
282,Eilat,29.56,34.95,59.0,67,0,2.1,IL,1607304441
283,Broken Hill,-31.95,141.43,68.0,34,40,17.22,AU,1607304165
284,Vao,-22.67,167.48,77.31,84,44,16.8,NC,1607304591
285,Benjamín Aceval,-24.97,-57.57,73.4,60,0,8.05,PY,1607304592
286,College,64.86,-147.8,6.8,71,90,8.05,US,1607304162
287,Salalah,17.02,54.09,73.4,73,40,3.36,OM,1607304474
288,Novaya Ladoga,60.1,32.3,28.0,20,0,16.04,RU,1607304595
289,Sabzawār,36.21,57.68,38.26,79,97,6.69,IR,1607304596
290,Ati,13.22,18.34,76.89,18,31,8.41,TD,1607304597
291,Vanavara,60.34,102.28,9.12,95,100,11.07,RU,1607304598
292,Fort Nelson,58.81,-122.7,21.2,92,75,6.93,CA,1607304599
293,Kozhevnikovo,56.26,83.97,9.0,88,100,8.01,RU,1607304601
294,Águas Formosas,-17.08,-40.94,70.52,92,93,3.09,BR,1607304603
295,Sungurlu,40.17,34.37,38.75,74,0,3.22,TR,1607304604
296,Lake Cowichan,48.83,-124.05,50.0,81,90,3.36,CA,1607304600
297,Manaure,11.78,-72.44,80.76,80,66,15.7,CO,1607304607
298,Kudahuvadhoo,2.67,72.89,82.49,77,67,12.3,MV,1607304608
299,Karaton,-6.34,106.1,80.01,94,40,13.87,ID,1607304609
300,São Félix do Xingu,-6.64,-51.99,74.08,92,100,0.98,BR,1607304383
301,Chancay,-11.57,-77.27,66.2,82,40,12.75,PE,1607304440
302,Vostok,46.49,135.88,9.68,94,98,5.32,RU,1607304193
303,Tarakan,3.3,117.63,80.44,80,100,7.52,ID,1607304384
304,Bathsheba,13.22,-59.52,78.8,74,20,12.75,BB,1607304615
305,Olinda,-8.01,-34.86,78.8,69,40,9.17,BR,1607304616
306,Constitución,-35.33,-72.42,52.52,91,63,6.71,CL,1607304617
307,Saint-Philippe,-21.36,55.77,75.2,73,75,5.82,RE,1607304618
308,Fare,-16.7,-151.02,80.83,74,100,10.51,PF,1607304200
309,Presidencia Roque Sáenz Peña,-26.79,-60.44,64.44,74,0,4.85,AR,1607304622
310,Port Hedland,-20.32,118.57,91.4,59,14,14.99,AU,1607304623
311,Camacha,33.08,-16.33,60.8,72,40,10.29,PT,1607304206
312,Sidi Ali,36.1,0.42,49.93,71,0,9.93,DZ,1607304625
313,São Francisco,-15.95,-44.86,71.28,90,100,3.29,BR,1607304626
314,Sitka,57.05,-135.33,46.4,87,90,21.92,US,1607304597
315,Prado,-17.34,-39.22,75.2,83,87,8.68,BR,1607304628
316,Gondanglegi,-7.75,112.01,83.62,74,42,12.5,ID,1607304629
317,Corpus Christi,27.8,-97.4,60.01,71,1,6.93,US,1607304396
318,Beyneu,45.32,55.2,9.72,90,0,7.65,KZ,1607304632
319,Maniitsoq,65.42,-52.9,26.24,98,100,14.18,GL,1607304633
320,Ahipara,-35.17,173.17,72.27,68,98,12.46,NZ,1607304213
321,Concepción del Oro,24.63,-101.42,38.16,68,0,7.29,MX,1607304635
322,Arlit,18.74,7.39,73.27,22,0,1.72,NE,1607304188
323,Sibu,2.3,111.82,82.4,88,40,3.36,MY,1607304638
324,Belmonte,-15.86,-38.88,77.0,78,0,6.93,BR,1607304172
325,Maciel,-32.46,-60.89,69.01,52,0,5.82,AR,1607304640
326,Port Lincoln,-34.73,135.87,60.44,54,88,23.98,AU,1607304615
327,Bay Roberts,47.6,-53.26,50.0,100,90,11.41,CA,1607304643
328,Ternate,0.8,127.4,86.22,63,89,0.94,ID,1607304644
329,Tobol,52.68,62.58,11.12,91,87,6.24,KZ,1607304645
330,Richards Bay,-28.78,32.04,69.57,93,21,6.76,ZA,1607304169
331,Westport,41.14,-73.36,34.0,67,0,15.01,US,1607304492
332,Yagodnoye,62.55,149.67,-16.92,83,100,2.8,RU,1607304648
333,Colares,38.8,-9.45,59.0,100,47,18.54,PT,1607304647
334,Mmathubudukwane,-24.6,26.43,66.2,93,0,6.93,BW,1607304650
335,Babol,36.55,52.68,48.67,82,100,8.88,IR,1607304616
336,Lagoa,39.05,-27.98,60.6,72,100,8.14,PT,1607304626
337,Luanshya,-13.14,28.42,65.07,95,98,2.71,ZM,1607304654
338,Pevek,69.7,170.31,5.11,94,100,1.57,RU,1607303902
339,Alyangula,-13.85,136.42,89.6,59,79,13.87,AU,1607304656
340,Bubaque,11.28,-15.83,81.88,66,0,11.05,GW,1607303980
341,Ballitoville,-29.54,31.21,69.8,83,0,3.36,ZA,1607304659
342,Kralendijk,12.15,-68.27,82.4,78,92,14.99,BQ,1607304613
343,São Desidério,-12.36,-44.97,73.18,67,3,1.5,BR,1607304661
344,Mabaruma,8.2,-59.78,74.68,93,0,3.87,GY,1607304663
345,Teya,60.38,92.63,7.79,90,100,14.63,RU,1607304664
346,Hithadhoo,-0.6,73.08,82.09,79,7,17.25,MV,1607304617
347,Soyo,-6.13,12.37,77.29,87,95,6.29,AO,1607304666
348,Hamilton,39.18,-84.53,37.4,69,90,6.93,US,1607304199
349,Amga,60.9,131.96,-1.57,92,100,2.33,RU,1607304668
350,Maţāy,28.42,30.78,60.3,32,3,10.54,EG,1607304669
351,Botngård,63.77,9.81,39.99,74,0,10.29,NO,1607304670
352,Saint-Ambroise,48.55,-71.33,25.0,100,100,13.87,CA,1607304671
353,São Joaquim,-28.29,-49.93,52.21,100,95,4.41,BR,1607304672
354,Moindou,-21.69,165.68,89.6,46,20,13.87,NC,1607304673
355,Punta de Piedra,7.62,-71.49,72.14,93,26,2.53,VE,1607304675
356,Mlimba,-8.8,35.82,72.01,77,5,3.44,TZ,1607304676
357,Surab,28.49,66.26,48.07,55,42,4.21,PK,1607304677
358,Province of Trapani,37.83,12.67,57.0,87,75,18.34,IT,1607304678
359,Pilar,-9.6,-35.96,73.4,88,20,2.24,BR,1607304679
360,Niamey,13.51,2.11,78.8,27,0,6.15,NE,1607304680
361,Tam Ky,15.57,108.48,69.8,94,90,1.12,VN,1607304682
362,Shakawe,-18.37,21.85,72.86,75,100,6.91,BW,1607304211
363,Hailey,43.52,-114.32,33.8,50,5,4.7,US,1607304686
364,Bethel,41.37,-73.41,30.99,68,0,1.01,US,1607303906
365,Baghmara,23.8,86.21,67.57,44,0,4.0,IN,1607304688
366,Altoona,40.52,-78.39,30.0,72,73,1.99,US,1607304689
367,Broome,42.25,-75.83,28.99,79,90,10.29,US,1607304652
368,Zyryanka,65.75,150.85,-27.94,86,62,2.15,RU,1607304166
369,Innisfail,-17.53,146.03,87.31,54,68,10.51,AU,1607304693
370,Santa Lucía,27.91,-15.54,61.0,87,40,19.46,ES,1607304694
371,Oriximiná,-1.77,-55.87,76.6,88,100,5.23,BR,1607304192
372,Araouane,18.9,-3.53,67.98,38,41,8.01,ML,1607304697
373,Murfreesboro,35.85,-86.39,50.0,66,90,4.7,US,1607304698
374,Mangit,40.6,70.96,32.0,81,100,6.93,UZ,1607304700
375,Lueta,46.27,25.48,30.99,83,0,4.0,RO,1607304701
376,Hoquiam,46.98,-123.89,50.0,87,1,5.82,US,1607304702
377,Kaligutan,7.7,125.81,82.4,78,40,6.93,PH,1607304704
378,Goderich,43.75,-81.72,30.2,74,98,3.36,CA,1607304454
379,Manono,-7.3,27.42,67.75,95,0,1.66,CD,1607304706
380,Wuwei,37.93,102.64,16.65,90,0,2.1,CN,1607304493
381,Scottsbluff,41.87,-103.67,33.8,37,1,8.05,US,1607304709
382,Valparaíso,-33.04,-71.63,53.6,93,90,6.93,CL,1607304710
383,Gambēla,8.25,34.58,78.13,53,39,2.73,ET,1607304711
384,Kiunga,-6.12,141.29,82.58,76,72,0.96,PG,1607304201
385,Aktobe,50.28,57.21,1.4,84,90,5.01,KZ,1607304713
386,Poum,-20.23,164.02,81.07,75,0,15.01,NC,1607304144
387,Caibarién,22.52,-79.47,73.4,88,40,5.82,CU,1607304715
388,Nuuk,64.18,-51.72,32.0,97,100,16.11,GL,1607304716
389,Romanovo,52.62,81.23,-0.24,92,63,4.09,RU,1607304717
390,Arrondissement du Havre,49.58,0.33,37.4,93,69,3.36,FR,1607304719
391,Bremerton,47.57,-122.63,51.01,93,40,8.05,US,1607304470
392,Zhigansk,66.77,123.37,-9.72,89,100,15.3,RU,1607303981
393,Monchegorsk,67.94,32.87,32.0,98,100,4.27,RU,1607304722
394,Haines Junction,60.75,-137.51,12.2,92,100,1.12,CA,1607304554
395,Chibuto,-24.69,33.53,71.35,86,84,6.22,MZ,1607304724
396,Comodoro Rivadavia,-45.87,-67.5,66.2,77,0,2.62,AR,1607304715
397,Choix,26.71,-108.32,62.69,28,0,3.15,MX,1607304726
398,Touros,-5.2,-35.46,78.8,83,75,5.82,BR,1607304165
399,Kisangani,0.52,25.2,70.45,97,100,4.41,CD,1607304728
400,Bonnyville,54.27,-110.73,30.2,58,20,3.36,CA,1607304439
401,Muncar,-8.43,114.33,87.4,64,16,0.83,ID,1607304731
402,Navalmoral de la Mata,39.89,-5.54,44.01,88,98,11.68,ES,1607304732
403,Nirmal,19.1,78.35,64.08,51,0,1.9,IN,1607304733
404,Jumla,29.27,82.18,41.81,48,0,3.38,NP,1607304668
405,Leh,34.17,77.58,15.39,77,95,0.07,IN,1607304735
406,Dali,25.7,100.18,49.82,63,3,1.99,CN,1607304736
407,Intipucá,13.2,-88.05,75.54,81,13,2.68,SV,1607304737
408,Lingdong,46.57,131.15,11.28,90,43,8.41,CN,1607304738
409,Show Low,34.25,-110.03,42.8,18,1,6.22,US,1607304739
410,Kindu,-2.95,25.95,68.5,97,80,1.77,CD,1607304741
411,San Juan,-31.54,-68.54,79.02,26,15,0.6,AR,1607304212
412,Birao,10.28,22.79,67.59,25,98,4.68,CF,1607304205
413,Breytovo,58.3,37.86,21.27,92,0,12.5,RU,1607304744
414,Tshikapa,-6.42,20.8,68.54,93,59,1.03,CD,1607304745
415,Creston,41.06,-94.36,33.8,100,90,6.93,US,1607304746
416,Teguise,29.06,-13.56,60.8,82,40,10.29,ES,1607304747
417,Orocué,4.79,-71.34,75.33,91,100,3.51,CO,1607304748
418,Abu Dhabi,24.47,54.37,77.0,69,40,11.41,AE,1607304457
419,Chunoyar,57.45,97.32,10.22,93,100,11.52,RU,1607304750
420,Härnösand,62.63,17.94,43.0,100,100,10.29,SE,1607304751
421,Jatibonico,21.94,-79.17,70.39,89,38,7.23,CU,1607304753
422,Pimentel,-6.84,-79.93,68.0,77,0,18.34,PE,1607304192
423,Santa Rosa,14.31,121.11,82.4,78,75,6.93,PH,1607304755
424,Rancho Palos Verdes,33.74,-118.39,60.8,29,40,10.29,US,1607304732
425,Neiafu,-18.65,-173.98,84.2,79,75,11.41,TO,1607304757
426,Makat,47.65,53.35,10.02,88,0,8.34,KZ,1607304758
427,Rehoboth,-23.32,17.08,58.57,55,0,2.64,NA,1607304759
428,Ust'-Uda,54.17,103.03,9.68,92,100,4.32,RU,1607304760
429,Lermontovka,47.15,134.34,14.99,91,97,7.27,RU,1607304715
430,Dori,14.04,-0.03,78.33,20,74,7.65,BF,1607304763
431,Andenes,69.31,16.12,33.01,86,10,4.7,NO,1607304765
432,Egvekinot,66.32,-179.17,9.7,84,8,5.39,RU,1607304215
433,Praia da Vitória,38.73,-27.07,57.2,87,20,8.46,PT,1607304680
434,La Rioja,42.25,-2.5,43.0,87,75,5.82,ES,1607304768
435,Sungai Penuh,-2.08,101.38,75.96,65,41,3.02,ID,1607304769
436,Uruçuí,-7.23,-44.56,78.44,69,0,1.34,BR,1607304770
437,Pangnirtung,66.15,-65.71,0.5,87,95,2.01,CA,1607304616
438,Asău,46.43,26.4,30.0,13,100,4.76,RO,1607304676
439,Blagoyevo,63.37,47.92,31.51,98,100,7.29,RU,1607304652
440,Kosino,58.41,51.28,13.77,94,18,7.0,RU,1607304775
441,Mossamedes,-15.2,12.15,66.43,75,7,7.58,AO,1607304702
442,Ancud,-41.87,-73.82,57.2,82,0,1.12,CL,1607304778
443,Mount Gambier,-37.83,140.77,50.0,76,75,26.4,AU,1607303994
444,Toora-Khem,52.47,96.11,-7.51,86,80,1.3,RU,1607304714
445,Shubarkuduk,49.14,56.49,4.42,92,0,4.34,KZ,1607304781
446,Kasempa,-13.46,25.83,64.09,96,100,3.8,ZM,1607304782
447,Clovis,36.83,-119.7,57.2,47,20,6.93,US,1607304655
448,Honiara,-9.43,159.95,87.8,74,40,10.29,SB,1607304784
449,Manta,-0.95,-80.73,75.2,83,75,10.29,EC,1607304785
450,Moose Factory,51.26,-80.61,14.0,92,90,2.73,CA,1607304786
451,Palmas Bellas,9.23,-80.09,79.0,86,100,7.0,PA,1607304788
452,Shelburne,44.08,-80.2,25.0,87,15,6.71,CA,1607304790
453,Aborlan,9.44,118.55,84.2,79,75,9.17,PH,1607304791
454,Petropavlovsk-Kamchatskiy,53.05,158.65,10.4,78,20,6.71,RU,1607304792
455,Isangel,-19.55,169.27,84.2,74,75,5.82,VU,1607304793
456,Miles City,46.41,-105.84,33.8,50,1,9.17,US,1607304620
457,Chara,56.91,118.26,-2.94,80,47,3.22,RU,1607304796
458,Winneba,5.35,-0.62,82.4,83,20,11.41,GH,1607304798
459,Lødingen,68.41,16.0,28.4,100,90,6.93,NO,1607304799
460,Tongliao,43.61,122.27,9.64,88,0,11.16,CN,1607304800
461,Port Townsend,48.12,-122.76,52.0,87,90,4.7,US,1607304801
462,Grenville,12.12,-61.62,78.8,83,20,9.17,GD,1607304802
463,Talcahuano,-36.72,-73.12,53.6,100,90,11.41,CL,1607304636
464,Tongchuanshi,35.08,109.09,29.68,81,100,5.61,CN,1607304804
465,Suez,29.97,32.53,60.78,49,0,7.92,EG,1607304805
466,Dingle,11.0,122.67,83.21,80,100,5.59,PH,1607304699
467,Solnechnyy,50.72,136.63,14.16,82,0,2.01,RU,1607304647
468,San Ramon,37.78,-121.98,55.99,43,1,3.36,US,1607304178
469,Buin,-33.73,-70.75,69.01,42,0,14.99,CL,1607304810
470,Okha,53.57,142.95,9.77,89,37,14.12,RU,1607304811
471,Waddān,29.16,16.14,52.5,42,0,6.26,LY,1607304812
472,Amahai,-3.33,128.92,88.84,60,75,1.21,ID,1607304813
473,Marawi,8.0,124.29,82.0,82,98,3.0,PH,1607304814
474,Kaoma,-14.78,24.8,64.76,96,100,2.91,ZM,1607304815
475,Heiligenhafen,54.37,10.98,44.01,93,100,6.93,DE,1607304816
476,Inhambane,-23.86,35.38,73.58,81,84,8.16,MZ,1607304817
477,Skjervøy,70.03,20.97,31.5,90,24,11.61,NO,1607304818
478,Felanitx,39.47,3.15,54.0,58,40,5.82,ES,1607304221
479,Karratha,-20.74,116.85,92.82,44,32,11.27,AU,1607304821
480,Mehrān,33.12,46.16,39.2,100,40,2.24,IR,1607304822
481,Buraidah,26.33,43.98,48.2,100,0,2.24,SA,1607304532
482,Chillicothe,39.33,-82.98,36.0,74,90,4.7,US,1607304693
483,Troitskoye,52.98,84.68,3.79,93,90,4.09,RU,1607304825
484,Wattegama,6.8,81.48,71.6,100,20,2.24,LK,1607304826
485,The Valley,18.22,-63.06,79.0,74,20,5.82,AI,1607304827
486,Road Town,18.42,-64.62,78.8,88,75,9.17,VG,1607304828
487,Hofn,64.25,-15.21,34.54,88,100,9.37,IS,1607304667
488,Vila Franca do Campo,37.72,-25.43,59.0,82,75,2.24,PT,1607304830
489,Nizhnevartovsk,60.93,76.55,15.8,85,90,11.18,RU,1607304832
490,Benguela,-12.58,13.41,73.76,83,86,2.91,AO,1607304833
491,Umluj,25.02,37.27,68.34,52,0,6.82,SA,1607304834
492,Shirokiy,49.76,129.52,6.22,93,64,5.28,RU,1607304835
493,Abu Samrah,35.3,37.18,49.62,79,0,2.33,SY,1607304837
494,Sechura,-5.56,-80.82,70.88,74,100,13.49,PE,1607304751
495,Jāwā,31.85,35.94,50.0,81,0,4.12,JO,1607304840
496,Ikom,5.97,8.71,73.85,90,4,1.07,NG,1607304842
497,Safaga,26.73,33.94,59.0,44,0,3.4,EG,1607304843
498,Majene,-3.54,118.97,88.16,57,100,1.28,ID,1607304844
499,Katobu,-4.94,122.53,89.71,59,100,2.04,ID,1607304845
500,Salinópolis,-0.61,-47.36,80.35,80,69,10.94,BR,1607304846
501,Ende,-8.84,121.66,86.16,61,100,2.42,ID,1607304848
502,Ziro,27.63,93.83,43.23,100,84,1.45,IN,1607304849
503,Behbahān,30.6,50.24,53.6,87,40,4.7,IR,1607304850
504,Chippewa Falls,44.94,-91.39,33.8,74,90,5.82,US,1607304418
505,Half Moon Bay,37.46,-122.43,57.2,71,1,5.82,US,1607304707
506,Ormara,25.21,64.64,75.47,71,0,4.29,PK,1607304854
507,Nivala,63.92,24.97,34.0,97,100,5.01,FI,1607304855
508,Imphal,24.82,93.95,46.4,93,40,0.47,IN,1607304602
509,Sabang,5.89,95.32,81.07,79,100,11.18,ID,1607304858
510,George Town,5.41,100.34,80.6,83,20,5.82,MY,1607304849
511,Portobelo,9.55,-79.65,79.0,99,100,6.46,PA,1607304860
512,Correntina,-13.34,-44.64,72.18,78,36,2.04,BR,1607304861
513,Kidal,18.44,1.41,69.46,34,11,9.24,ML,1607304863
514,Krasnyy,54.57,31.43,20.82,92,0,12.08,RU,1607304864
515,Lyuban',52.8,28.0,23.38,93,0,16.98,BY,1607304865
516,Aleksandrovskoye,44.71,43.0,23.0,92,90,13.42,RU,1607304866
517,Adzhamka,48.54,32.54,18.81,89,0,14.45,UA,1607304867
518,Casma,-41.01,-73.12,62.6,72,0,4.7,CL,1607304869
519,Rio Casca,-20.23,-42.65,71.1,88,100,2.15,BR,1607304873
520,Ingham,42.6,-84.38,27.0,73,90,3.36,US,1607304874
521,Miyazu,35.53,135.18,42.8,87,20,4.7,JP,1607304875
522,Sobolevo,54.43,31.9,20.41,92,0,11.14,RU,1607304833
523,Steinbach am Taunus,50.17,8.57,42.01,100,90,4.7,DE,1607304877
524,Havre-St-Pierre,50.23,-63.6,28.4,92,90,24.16,CA,1607304879
525,Anzio,41.49,12.62,46.99,81,40,9.17,IT,1607304880
526,Aberdeen,57.14,-2.1,39.2,100,91,3.36,GB,1607304881
527,Koungou,-12.73,45.2,78.8,83,40,1.12,YT,1607304882
528,Constantine,36.37,6.61,41.0,72,40,11.41,DZ,1607304883
529,Sohag,26.56,31.69,57.2,41,0,6.93,EG,1607304885
530,Tessalit,20.2,1.01,63.99,38,38,6.04,ML,1607304886
531,Chase,50.82,-119.69,36.0,86,100,3.36,CA,1607304887
532,Stornoway,58.21,-6.39,37.99,79,1,2.24,GB,1607304888
533,Puerto Vallarta,20.62,-105.23,73.4,83,90,2.24,MX,1607304889
534,Verāval,20.9,70.37,74.23,48,72,10.16,IN,1607304678
535,Liverpool,53.41,-2.98,41.0,93,100,1.12,GB,1607304679
536,Tolga,34.72,5.38,44.6,70,40,5.82,DZ,1607304894
537,Lumberton,34.62,-79.01,44.6,81,1,4.74,US,1607304895
538,Paita,-5.09,-81.11,68.49,81,100,13.2,PE,1607304897
539,Sosnogorsk,63.6,53.88,27.45,98,100,7.49,RU,1607304898
540,Morales,2.76,-76.62,59.45,90,94,1.45,CO,1607304899
541,Faya,18.39,42.45,53.6,93,0,3.36,SA,1607304901
542,Seidu,9.02,-10.6,67.1,100,99,2.26,SL,1607304903
543,Taunggyi,20.78,97.03,59.49,75,0,1.63,MM,1607304634
544,Yulara,-25.24,130.99,84.2,17,90,12.75,AU,1607304906
545,Bandarbeyla,9.49,50.81,74.66,78,33,7.43,SO,1607304648
546,Chumikan,54.72,135.31,5.61,85,94,21.56,RU,1607304908
547,Durango,24.83,-104.83,38.32,68,0,2.3,MX,1607304824
548,Turiaçu,-1.66,-45.37,76.6,89,99,4.63,BR,1607304912
549,Byron Bay,-28.65,153.62,86.0,65,75,10.29,AU,1607304913
550,Banes,20.96,-75.72,73.4,88,20,8.05,CU,1607304914
551,North Branch,45.51,-92.98,33.01,99,0,0.94,US,1607304916
